[
  {
    "Id": 1,
    "name": "TechCorp Solutions",
    "industry": "Technology",
    "size": "Large",
    "website": "https://techcorp-solutions.com",
    "phone": "+1 (555) 123-4567",
    "address": "123 Innovation Drive",
    "city": "San Francisco",
    "state": "CA",
    "zipCode": "94105",
    "country": "United States",
    "location": "San Francisco, CA",
    "notes": "Leading software development company specializing in enterprise solutions. Key client for web development and system integration projects.",
    "createdDate": "2023-01-15T10:30:00Z",
    "totalDealValue": 145000,
    "contactCount": 8,
    "tags": "enterprise,software,web development"
  },
  {
    "Id": 2,
    "name": "Manufacturing Plus",
    "industry": "Manufacturing",
    "size": "Enterprise",
    "website": "https://manufacturingplus.com",
    "phone": "+1 (555) 234-5678",
    "address": "456 Industrial Blvd",
    "city": "Detroit",
    "state": "MI",
    "zipCode": "48201",
    "country": "United States",
    "location": "Detroit, MI",
    "notes": "Large manufacturing company with multiple facilities. Interested in ERP solutions and workflow automation systems.",
    "createdDate": "2023-02-08T09:15:00Z",
    "totalDealValue": 275000,
    "contactCount": 12,
    "tags": "manufacturing,erp,automation"
  },
  {
    "Id": 3,
    "name": "RetailMax Inc",
    "industry": "Retail",
    "size": "Medium",
    "website": "https://retailmax.com",
    "phone": "+1 (555) 345-6789",
    "address": "789 Commerce Street",
    "city": "Chicago",
    "state": "IL",
    "zipCode": "60601",
    "country": "United States",
    "location": "Chicago, IL",
    "notes": "Growing retail chain with 50+ locations. Focused on digital transformation and e-commerce expansion.",
    "createdDate": "2023-03-20T11:00:00Z",
    "totalDealValue": 89000,
    "contactCount": 6,
    "tags": "retail,ecommerce,digital transformation"
  },
  {
    "Id": 4,
    "name": "StartupXYZ",
    "industry": "Technology",
    "size": "Startup",
    "website": "https://startupxyz.com",
    "phone": "+1 (555) 456-7890",
    "address": "321 Startup Lane",
    "city": "Austin",
    "state": "TX",
    "zipCode": "73301",
    "country": "United States",
    "location": "Austin, TX",
    "notes": "Innovative food delivery startup with rapid growth potential. Building mobile application and delivery platform.",
    "createdDate": "2023-04-12T14:20:00Z",
    "totalDealValue": 55000,
    "contactCount": 4,
    "tags": "startup,food tech,mobile app"
  },
  {
    "Id": 5,
    "name": "FinanceFirst",
    "industry": "Finance",
    "size": "Large",
    "website": "https://financefirst.com",
    "phone": "+1 (555) 567-8901",
    "address": "987 Wall Street",
    "city": "New York",
    "state": "NY",
    "zipCode": "10005",
    "country": "United States",
    "location": "New York, NY",
    "notes": "Established financial services firm requiring custom analytics platform. High-value client with multiple project opportunities.",
    "createdDate": "2023-05-03T08:45:00Z",
    "totalDealValue": 320000,
    "contactCount": 15,
    "tags": "finance,analytics,enterprise"
  },
  {
    "Id": 6,
    "name": "HealthTech Solutions",
    "industry": "Healthcare",
    "size": "Medium",
    "website": "https://healthtech-solutions.com",
    "phone": "+1 (555) 678-9012",
    "address": "654 Medical Center Drive",
    "city": "Boston",
    "state": "MA",
    "zipCode": "02101",
    "country": "United States",
    "location": "Boston, MA",
    "notes": "Healthcare technology company focused on patient management systems. Requires HIPAA compliance and security audits.",
    "createdDate": "2023-06-10T15:45:00Z",
    "totalDealValue": 128000,
    "contactCount": 9,
    "tags": "healthcare,hipaa,compliance"
  },
  {
    "Id": 7,
    "name": "Online Retailers Co",
    "industry": "Retail",
    "size": "Small",
    "website": "https://onlineretailers.com",
    "phone": "+1 (555) 789-0123",
    "address": "147 E-commerce Way",
    "city": "Seattle",
    "state": "WA",
    "zipCode": "98101",
    "country": "United States",
    "location": "Seattle, WA",
    "notes": "Online retail company specializing in electronics. Looking to upgrade e-commerce platform and payment systems.",
    "createdDate": "2023-07-22T10:15:00Z",
    "totalDealValue": 68000,
    "contactCount": 5,
    "tags": "online retail,ecommerce,electronics"
  },
  {
    "Id": 8,
    "name": "CustomerCare Inc",
    "industry": "Technology",
    "size": "Small",
    "website": "https://customercare-inc.com",
    "phone": "+1 (555) 890-1234",
    "address": "258 Support Boulevard",
    "city": "Denver",
    "state": "CO",
    "zipCode": "80201",
    "country": "United States",
    "location": "Denver, CO",
    "notes": "Customer service technology provider. Interested in AI chatbot implementation for enhanced customer support.",
    "createdDate": "2023-08-15T13:22:00Z",
    "totalDealValue": 28000,
    "contactCount": 3,
    "tags": "customer service,ai,chatbot"
  },
  {
    "Id": 9,
    "name": "GrowthHackers Ltd",
    "industry": "Technology",
    "size": "Small",
    "website": "https://growthhackers.com",
    "phone": "+1 (555) 901-2345",
    "address": "369 Marketing Plaza",
    "city": "Los Angeles",
    "state": "CA",
    "zipCode": "90001",
    "country": "United States",
    "location": "Los Angeles, CA",
    "notes": "Digital marketing agency focused on growth strategies. Requires marketing automation platform and lead scoring system.",
    "createdDate": "2023-09-30T16:00:00Z",
    "totalDealValue": 52000,
    "contactCount": 4,
    "tags": "marketing,automation,growth"
  },
  {
    "Id": 10,
    "name": "DataDriven Corp",
    "industry": "Technology",
    "size": "Medium",
    "website": "https://datadriven-corp.com",
    "phone": "+1 (555) 012-3456",
    "address": "741 Analytics Avenue",
    "city": "Atlanta",
    "state": "GA",
    "zipCode": "30301",
    "country": "United States",
    "location": "Atlanta, GA",
    "notes": "Data analytics company requiring database optimization and performance improvements. PostgreSQL expertise needed.",
    "createdDate": "2023-10-18T09:45:00Z",
    "totalDealValue": 38000,
    "contactCount": 6,
    "tags": "data analytics,database,postgresql"
  },
  {
    "Id": 11,
    "name": "ProcessPro Solutions",
    "industry": "Manufacturing",
    "size": "Medium",
    "website": "https://processpro.com",
    "phone": "+1 (555) 123-0987",
    "address": "852 Process Street",
    "city": "Houston",
    "state": "TX",
    "zipCode": "77001",
    "country": "United States",
    "location": "Houston, TX",
    "notes": "Manufacturing process optimization company. Interested in workflow automation system for document processing.",
    "createdDate": "2023-11-05T11:30:00Z",
    "totalDealValue": 62000,
    "contactCount": 7,
    "tags": "manufacturing,workflow,automation"
  },
  {
    "Id": 12,
    "name": "ConnectAll Systems",
    "industry": "Technology",
    "size": "Small",
    "website": "https://connectall.com",
    "phone": "+1 (555) 234-1098",
    "address": "963 Integration Road",
    "city": "Phoenix",
    "state": "AZ",
    "zipCode": "85001",
    "country": "United States",
    "location": "Phoenix, AZ",
    "notes": "System integration specialists requiring API development and third-party system connections.",
    "createdDate": "2023-12-22T14:10:00Z",
    "totalDealValue": 41000,
    "contactCount": 4,
    "tags": "integration,api,third-party"
  },
  {
    "Id": 13,
    "name": "ScaleUp Technologies",
    "industry": "Technology",
    "size": "Startup",
    "website": "https://scaleup-tech.com",
    "phone": "+1 (555) 345-2109",
    "address": "174 Innovation Circle",
    "city": "San Diego",
    "state": "CA",
    "zipCode": "92101",
    "country": "United States",
    "location": "San Diego, CA",
    "notes": "Fast-growing tech startup needing DevOps infrastructure setup with CI/CD automation and monitoring.",
    "createdDate": "2024-01-08T12:15:00Z",
    "totalDealValue": 47000,
    "contactCount": 5,
    "tags": "startup,devops,cicd"
  },
  {
    "Id": 14,
    "name": "EduTech Innovations",
    "industry": "Education",
    "size": "Small",
    "website": "https://edutech-innovations.com",
    "phone": "+1 (555) 456-3210",
    "address": "285 Learning Lane",
    "city": "Portland",
    "state": "OR",
    "zipCode": "97201",
    "country": "United States",
    "location": "Portland, OR",
    "notes": "Educational technology company developing interactive training platforms with video content management.",
    "createdDate": "2024-01-20T10:00:00Z",
    "totalDealValue": 33000,
    "contactCount": 3,
    "tags": "education,training,video platform"
  },
  {
    "Id": 15,
    "name": "PropertyWorks Real Estate",
    "industry": "Real Estate",
    "size": "Medium",
    "website": "https://propertyworks.com",
    "phone": "+1 (555) 567-4321",
    "address": "396 Realty Plaza",
    "city": "Miami",
    "state": "FL",
    "zipCode": "33101",
    "country": "United States",
    "location": "Miami, FL",
    "notes": "Commercial real estate firm requiring property management system and client portal development.",
    "createdDate": "2024-01-25T15:30:00Z",
    "totalDealValue": 72000,
    "contactCount": 8,
    "tags": "real estate,property management,portal"
  }
]